{
  "_meta": {
    "source": "USPS state codes + US Census geographic centroids",
    "schema_version": 1,
    "description": "US states + DC + territories. ``code`` is the USPS two-letter code (also the GeoNames admin1 code for US rows). ``centroid`` is approximate; suitable for map pins, not authoritative."
  },
  "states": [
    {"code": "AL", "name": "Alabama", "aliases": ["Ala."], "lat": 32.806671, "lng": -86.79113},
    {"code": "AK", "name": "Alaska", "aliases": [], "lat": 61.370716, "lng": -152.404419},
    {"code": "AZ", "name": "Arizona", "aliases": ["Ariz."], "lat": 33.729759, "lng": -111.431221},
    {"code": "AR", "name": "Arkansas", "aliases": ["Ark."], "lat": 34.969704, "lng": -92.373123},
    {"code": "CA", "name": "California", "aliases": ["Calif.", "Cal."], "lat": 36.116203, "lng": -119.681564},
    {"code": "CO", "name": "Colorado", "aliases": ["Colo."], "lat": 39.059811, "lng": -105.311104},
    {"code": "CT", "name": "Connecticut", "aliases": ["Conn."], "lat": 41.597782, "lng": -72.755371},
    {"code": "DE", "name": "Delaware", "aliases": ["Del."], "lat": 39.318523, "lng": -75.507141},
    {"code": "DC", "name": "District of Columbia", "aliases": ["Washington DC", "Washington, DC", "D.C."], "lat": 38.897438, "lng": -77.026817},
    {"code": "FL", "name": "Florida", "aliases": ["Fla."], "lat": 27.766279, "lng": -81.686783},
    {"code": "GA", "name": "Georgia", "aliases": ["Ga."], "lat": 33.040619, "lng": -83.643074},
    {"code": "HI", "name": "Hawaii", "aliases": [], "lat": 21.094318, "lng": -157.498337},
    {"code": "ID", "name": "Idaho", "aliases": [], "lat": 44.240459, "lng": -114.478828},
    {"code": "IL", "name": "Illinois", "aliases": ["Ill."], "lat": 40.349457, "lng": -88.986137},
    {"code": "IN", "name": "Indiana", "aliases": ["Ind."], "lat": 39.849426, "lng": -86.258278},
    {"code": "IA", "name": "Iowa", "aliases": [], "lat": 42.011539, "lng": -93.210526},
    {"code": "KS", "name": "Kansas", "aliases": ["Kan."], "lat": 38.5266, "lng": -96.726486},
    {"code": "KY", "name": "Kentucky", "aliases": ["Ky."], "lat": 37.66814, "lng": -84.670067},
    {"code": "LA", "name": "Louisiana", "aliases": ["La."], "lat": 31.169546, "lng": -91.867805},
    {"code": "ME", "name": "Maine", "aliases": [], "lat": 44.693947, "lng": -69.381927},
    {"code": "MD", "name": "Maryland", "aliases": ["Md."], "lat": 39.063946, "lng": -76.802101},
    {"code": "MA", "name": "Massachusetts", "aliases": ["Mass."], "lat": 42.230171, "lng": -71.530106},
    {"code": "MI", "name": "Michigan", "aliases": ["Mich."], "lat": 43.326618, "lng": -84.536095},
    {"code": "MN", "name": "Minnesota", "aliases": ["Minn."], "lat": 45.694454, "lng": -93.900192},
    {"code": "MS", "name": "Mississippi", "aliases": ["Miss."], "lat": 32.741646, "lng": -89.678696},
    {"code": "MO", "name": "Missouri", "aliases": ["Mo."], "lat": 38.456085, "lng": -92.288368},
    {"code": "MT", "name": "Montana", "aliases": ["Mont."], "lat": 46.921925, "lng": -110.454353},
    {"code": "NE", "name": "Nebraska", "aliases": ["Neb."], "lat": 41.12537, "lng": -98.268082},
    {"code": "NV", "name": "Nevada", "aliases": ["Nev."], "lat": 38.313515, "lng": -117.055374},
    {"code": "NH", "name": "New Hampshire", "aliases": ["N.H."], "lat": 43.452492, "lng": -71.563896},
    {"code": "NJ", "name": "New Jersey", "aliases": ["N.J."], "lat": 40.298904, "lng": -74.521011},
    {"code": "NM", "name": "New Mexico", "aliases": ["N.M.", "N.Mex."], "lat": 34.840515, "lng": -106.248482},
    {"code": "NY", "name": "New York", "aliases": ["N.Y."], "lat": 42.165726, "lng": -74.948051},
    {"code": "NC", "name": "North Carolina", "aliases": ["N.C."], "lat": 35.630066, "lng": -79.806419},
    {"code": "ND", "name": "North Dakota", "aliases": ["N.D.", "N.Dak."], "lat": 47.528912, "lng": -99.784012},
    {"code": "OH", "name": "Ohio", "aliases": [], "lat": 40.388783, "lng": -82.764915},
    {"code": "OK", "name": "Oklahoma", "aliases": ["Okla."], "lat": 35.565342, "lng": -96.928917},
    {"code": "OR", "name": "Oregon", "aliases": ["Ore."], "lat": 44.572021, "lng": -122.070938},
    {"code": "PA", "name": "Pennsylvania", "aliases": ["Pa.", "Penn."], "lat": 40.590752, "lng": -77.209755},
    {"code": "RI", "name": "Rhode Island", "aliases": ["R.I."], "lat": 41.680893, "lng": -71.51178},
    {"code": "SC", "name": "South Carolina", "aliases": ["S.C."], "lat": 33.856892, "lng": -80.945007},
    {"code": "SD", "name": "South Dakota", "aliases": ["S.D.", "S.Dak."], "lat": 44.299782, "lng": -99.438828},
    {"code": "TN", "name": "Tennessee", "aliases": ["Tenn."], "lat": 35.747845, "lng": -86.692345},
    {"code": "TX", "name": "Texas", "aliases": ["Tex."], "lat": 31.054487, "lng": -97.563461},
    {"code": "UT", "name": "Utah", "aliases": [], "lat": 40.150032, "lng": -111.862434},
    {"code": "VT", "name": "Vermont", "aliases": ["Vt."], "lat": 44.045876, "lng": -72.710686},
    {"code": "VA", "name": "Virginia", "aliases": ["Va."], "lat": 37.769337, "lng": -78.169968},
    {"code": "WA", "name": "Washington", "aliases": ["Wash."], "lat": 47.400902, "lng": -121.490494},
    {"code": "WV", "name": "West Virginia", "aliases": ["W.Va."], "lat": 38.491226, "lng": -80.954456},
    {"code": "WI", "name": "Wisconsin", "aliases": ["Wis."], "lat": 44.268543, "lng": -89.616508},
    {"code": "WY", "name": "Wyoming", "aliases": ["Wyo."], "lat": 42.755966, "lng": -107.30249},
    {"code": "AS", "name": "American Samoa", "aliases": [], "lat": -14.270972, "lng": -170.132217},
    {"code": "GU", "name": "Guam", "aliases": [], "lat": 13.444304, "lng": 144.793732},
    {"code": "MP", "name": "Northern Mariana Islands", "aliases": [], "lat": 15.0979, "lng": 145.6739},
    {"code": "PR", "name": "Puerto Rico", "aliases": [], "lat": 18.220833, "lng": -66.590149},
    {"code": "VI", "name": "U.S. Virgin Islands", "aliases": ["US Virgin Islands", "USVI"], "lat": 18.335765, "lng": -64.896335}
  ]
}
